"Date and Time Downloaded : 12/30/2020 03:18:14 pm""Health Facility Code""",Facility Name,Health Facility Type,Region Name,Province Name,City/Municipality Name,lon,lat,precision
DOH000000000000816,ANTIPOLO RURAL HEALTH UNIT II,Rural Health Unit,REGION IV-A (CALABAR ZON),RIZAL,CITY OF ANTIPOLO (Capital),121.18607320000001,14.578273300000001,GEOMETRIC_CENTER
DOH000000000002531,ANTIPOLO CITY HEALTH OFFICE I,Rural Health Unit,REGION IV-A (CALABAR ZON),RIZAL,CITY OF ANTIPOLO (Capital),121.17436070000001,14.5857797,GEOMETRIC_CENTER
DOH000000000029559,ANTIPOLO RURAL HEALTH UNIT V,Rural Health Unit,REGION IV-A (CALABAR ZON),RIZAL,CITY OF ANTIPOLO (Capital),121.18034320000001,14.6195413,GEOMETRIC_CENTER
DOH000000000031352,ANTIPOLO RURAL HEALTH UNIT III,Rural Health Unit,REGION IV-A (CALABAR ZON),RIZAL,CITY OF ANTIPOLO (Capital),121.22865209999999,14.633939300000002,GEOMETRIC_CENTER
DOH000000000031353,ANTIPOLO RURAL HEALTH UNIT IV,Rural Health Unit,REGION IV-A (CALABAR ZON),RIZAL,CITY OF ANTIPOLO (Capital),121.12783459999999,14.620564000000002,ROOFTOP
